City_ID,City,Country,Date,Lat,Lng,Max Temp,Humidity,Cloudiness,Wind Speed,Current Description,Rain inches (last 3 hrs),Snow inches (last 3 hrs)
0,Utrecht,NL,2020-02-24 05:52:38,52.0,5.25,43.0,86,90,6.93,overcast clouds,0.0,0.0
1,Neiafu,TO,2020-02-24 05:55:24,-18.65,-173.98,84.2,79,20,9.17,few clouds,0.0,0.0
2,Klaksvik,FO,2020-02-24 05:55:25,62.23,-6.59,39.2,69,80,17.22,light snow,0.0,0.014960629921259844
3,Aklavik,CA,2020-02-24 05:55:25,68.22,-135.01,-4.0,76,90,2.24,light snow,0.0,0.0
4,Quesnel,CA,2020-02-24 05:55:25,53.0,-122.5,28.4,100,90,3.36,mist,0.0,0.0
5,Georgetown,MY,2020-02-24 05:55:12,5.41,100.34,89.6,55,20,10.29,few clouds,0.0,0.0
6,Busselton,AU,2020-02-24 05:55:25,-33.65,115.33,77.0,36,99,13.78,overcast clouds,0.0,0.0
7,Bairiki,KI,2020-02-24 05:55:26,1.33,172.98,87.8,74,20,6.93,few clouds,0.0,0.0
8,Porto Novo,BJ,2020-02-24 05:55:26,6.5,2.6,84.2,89,40,6.93,scattered clouds,0.0,0.0
9,Santo Anastacio,BR,2020-02-24 05:52:09,-21.84,-51.61,73.4,69,75,10.29,broken clouds,0.0,0.0
10,Rikitea,PF,2020-02-24 05:55:26,-23.12,-134.97,79.81,71,7,6.71,clear sky,0.0,0.0
11,Avarua,CK,2020-02-24 05:55:26,-21.21,-159.78,78.8,94,100,3.36,light rain,0.007480314960629922,0.0
12,Norman Wells,CA,2020-02-24 05:55:27,65.28,-126.83,1.4,84,75,4.7,light snow,0.0,0.0
13,Kuytun,RU,2020-02-24 05:55:27,54.34,101.5,14.7,89,79,4.03,broken clouds,0.0,0.0
14,Ushuaia,AR,2020-02-24 05:55:27,-54.8,-68.3,42.8,70,90,20.8,light rain,0.0,0.0
15,Mataura,NZ,2020-02-24 05:55:27,-46.19,168.86,62.92,70,6,6.62,clear sky,0.0,0.0
16,General Pico,AR,2020-02-24 05:55:05,-35.66,-63.76,67.26,37,0,13.06,clear sky,0.0,0.0
17,Havelock,US,2020-02-24 05:55:28,34.88,-76.9,44.6,80,40,3.91,scattered clouds,0.0,0.0
18,Litovko,RU,2020-02-24 05:55:28,49.24,135.17,19.74,84,100,3.65,overcast clouds,0.0,0.0
19,Punta Arenas,CL,2020-02-24 05:55:06,-53.15,-70.92,44.01,75,50,18.99,light rain,0.00984251968503937,0.0
20,Banda Aceh,ID,2020-02-24 05:55:03,5.56,95.32,88.05,56,52,10.04,broken clouds,0.0,0.0
21,Ryotsu,JP,2020-02-24 05:55:28,38.08,138.43,51.8,66,75,6.93,broken clouds,0.0,0.0
22,Marsa Matruh,EG,2020-02-24 05:50:58,31.35,27.25,53.6,71,75,11.41,broken clouds,0.0,0.0
23,Katsuura,JP,2020-02-24 05:55:29,35.13,140.3,63.0,44,20,9.17,few clouds,0.0,0.0
24,Bafq,IR,2020-02-24 05:55:29,31.61,55.41,66.13,18,68,10.74,broken clouds,0.0,0.0
25,Urengoy,RU,2020-02-24 05:51:04,65.97,78.37,27.66,89,100,21.14,light snow,0.0,0.004724409448818898
26,Codrington,AU,2020-02-24 05:55:29,-38.27,141.97,62.76,86,75,13.65,broken clouds,0.0,0.0
27,Vaini,TO,2020-02-24 05:55:30,-21.2,-175.2,80.6,88,40,6.93,scattered clouds,0.0,0.0
28,Kahului,US,2020-02-24 05:50:51,20.89,-156.47,75.2,69,40,10.29,scattered clouds,0.0,0.0
29,Ribeira Grande,PT,2020-02-24 05:55:30,38.52,-28.7,55.4,84,90,8.21,overcast clouds,0.0,0.0
30,Plettenberg Bay,ZA,2020-02-24 05:55:30,-34.05,23.37,62.76,68,0,0.27,clear sky,0.0,0.0
31,Saint-Pierre,RE,2020-02-24 05:55:30,-21.34,55.48,84.2,65,25,5.82,scattered clouds,0.0,0.0
32,Bambous Virieux,MU,2020-02-24 05:55:31,-20.34,57.76,82.4,78,20,2.44,few clouds,0.0,0.0
33,Bluff,NZ,2020-02-24 05:55:31,-46.6,168.33,60.69,68,25,12.53,scattered clouds,0.0,0.0
34,Hilo,US,2020-02-24 05:55:31,19.73,-155.09,75.2,69,90,1.1,overcast clouds,0.0,0.0
35,Skjervoy,NO,2020-02-24 05:55:31,70.03,20.97,30.2,92,90,35.57,light shower snow,0.0,0.0
36,Bredasdorp,ZA,2020-02-24 05:55:31,-34.53,20.04,64.99,87,0,3.36,clear sky,0.0,0.0
37,Birecik,TR,2020-02-24 05:55:32,37.03,37.99,46.4,87,75,5.82,broken clouds,0.0,0.0
38,Jamestown,US,2020-02-24 05:55:32,42.1,-79.24,44.6,44,1,13.87,clear sky,0.0,0.0
39,Huarmey,PE,2020-02-24 05:55:32,-10.07,-78.15,74.53,67,98,0.09,overcast clouds,0.0,0.0
40,Hobyo,SO,2020-02-24 05:55:32,5.35,48.53,82.67,61,98,19.26,overcast clouds,0.0,0.0
41,Springbok,ZA,2020-02-24 05:55:33,-29.66,17.89,69.8,23,0,18.61,clear sky,0.0,0.0
42,Port Elizabeth,ZA,2020-02-24 05:55:33,-33.92,25.57,60.8,82,11,2.24,few clouds,0.0,0.0
43,Urumqi,CN,2020-02-24 05:55:33,43.8,87.6,35.6,69,98,4.47,smoke,0.0,0.0
44,Butaritari,KI,2020-02-24 05:55:33,3.07,172.79,82.06,84,68,26.22,moderate rain,0.3716535433070866,0.0
45,Kapaa,US,2020-02-24 05:55:34,22.08,-159.32,75.2,64,90,8.05,overcast clouds,0.0,0.0
46,Khatanga,RU,2020-02-24 05:55:34,71.97,102.5,20.1,89,100,18.43,light snow,0.0,0.01968503937007874
47,Arraial Do Cabo,BR,2020-02-24 05:55:34,-22.97,-42.03,73.99,71,100,4.85,overcast clouds,0.0,0.0
48,Anadyr,RU,2020-02-24 05:55:34,64.75,177.48,-11.2,76,58,4.81,broken clouds,0.0,0.0
49,Puerto Ayora,EC,2020-02-24 05:55:35,-0.74,-90.35,77.0,100,88,4.68,overcast clouds,0.0,0.0
50,Provideniya,RU,2020-02-24 05:55:35,64.38,-173.3,-3.96,63,32,2.57,scattered clouds,0.0,0.0
51,Cainta,PH,2020-02-24 05:52:27,14.58,121.12,87.8,62,40,16.11,scattered clouds,0.0,0.0
52,Hermanus,ZA,2020-02-24 05:55:35,-34.42,19.23,66.0,71,0,10.0,clear sky,0.0,0.0
53,Vao,NC,2020-02-24 05:54:16,-22.67,167.48,78.82,72,71,14.16,broken clouds,0.0,0.0
54,Torbay,CA,2020-02-24 05:55:36,47.67,-52.73,28.99,86,20,13.87,few clouds,0.0,0.0
55,San Ramon De La Nueva Oran,AR,2020-02-24 05:55:36,-23.13,-64.33,66.99,88,74,2.71,broken clouds,0.0,0.0
56,Oranjestad,AW,2020-02-24 05:55:20,12.52,-70.03,78.8,69,20,8.05,few clouds,0.0,0.0
57,Hay River,CA,2020-02-24 05:55:36,60.82,-115.8,-13.0,83,20,3.36,few clouds,0.0,0.0
58,Meadow Lake,US,2020-02-24 05:55:36,34.8,-106.54,41.0,69,1,8.05,clear sky,0.0,0.0
59,Guerrero Negro,MX,2020-02-24 05:55:37,27.98,-114.06,58.59,82,98,16.35,overcast clouds,0.0,0.0
60,Daru,PG,2020-02-24 05:55:37,-9.08,143.21,93.72,51,96,5.46,overcast clouds,0.0,0.0
61,Castro,BR,2020-02-24 05:55:37,-24.79,-50.01,57.63,91,100,8.12,overcast clouds,0.0,0.0
62,New Norfolk,AU,2020-02-24 05:55:37,-42.78,147.06,72.0,60,75,14.99,broken clouds,0.0,0.0
63,Upernavik,GL,2020-02-24 05:55:37,72.79,-56.15,-20.83,87,16,4.12,few clouds,0.0,0.0
64,Glendive,US,2020-02-24 05:55:38,47.11,-104.71,32.0,68,20,5.82,few clouds,0.0,0.0
65,Mount Gambier,AU,2020-02-24 05:55:38,-37.83,140.77,77.0,47,75,10.29,broken clouds,0.0,0.0
66,Sola,VU,2020-02-24 05:55:38,-13.88,167.55,84.11,73,0,14.2,clear sky,0.0,0.0
67,Albany,US,2020-02-24 05:54:08,42.6,-73.97,34.0,79,1,5.82,clear sky,0.0,0.0
68,Ahuimanu,US,2020-02-24 05:55:38,21.44,-157.84,77.0,69,20,10.29,few clouds,0.0,0.0
69,Port Hardy,CA,2020-02-24 05:52:37,50.7,-127.42,37.4,97,90,11.41,overcast clouds,0.0,0.0
70,Kota Belud,MY,2020-02-24 05:55:39,6.35,116.43,89.6,59,20,6.93,few clouds,0.0,0.0
71,Port Lincoln,AU,2020-02-24 05:55:39,-34.73,135.87,75.34,55,0,14.92,clear sky,0.0,0.0
72,Kodiak,US,2020-02-24 05:55:39,57.79,-152.41,24.8,41,1,18.34,clear sky,0.0,0.0
73,Sexsmith,CA,2020-02-24 05:55:40,55.35,-118.79,15.01,78,40,2.1,scattered clouds,0.0,0.0
74,Goderich,CA,2020-02-24 05:55:40,43.75,-81.72,41.0,81,0,11.99,clear sky,0.0,0.0
75,Fortuna,US,2020-02-24 05:51:09,40.6,-124.16,48.99,87,20,8.05,few clouds,0.0,0.0
76,Kutum,SD,2020-02-24 05:55:40,14.2,24.67,56.28,33,0,16.13,clear sky,0.0,0.0
77,Sterling,US,2020-02-24 05:52:19,39.01,-77.43,39.99,74,40,2.68,scattered clouds,0.0,0.0
78,Lapua,FI,2020-02-24 05:55:41,62.92,23.17,33.01,74,90,12.75,light snow,0.0,0.0
79,Giyon,ET,2020-02-24 05:55:41,8.53,37.98,68.25,50,90,9.53,overcast clouds,0.0,0.0
80,Russell,US,2020-02-24 05:55:41,32.35,-85.2,53.01,70,90,3.33,overcast clouds,0.0,0.0
81,Mahajanga,MG,2020-02-24 05:55:41,-15.72,46.32,82.4,88,20,6.93,few clouds,0.0,0.0
82,La Roche-Sur-Yon,FR,2020-02-24 05:55:41,46.67,-1.43,50.0,100,90,6.93,overcast clouds,0.0,0.0
83,Dalhousie,IN,2020-02-24 05:55:42,32.53,75.98,62.17,27,19,6.24,few clouds,0.0,0.0
84,Yellowknife,CA,2020-02-24 05:55:42,62.46,-114.35,-11.0,69,5,8.05,clear sky,0.0,0.0
85,Moron,AR,2020-02-24 05:52:58,-34.65,-58.62,73.4,83,0,6.93,clear sky,0.0,0.0
86,Shizilu,CN,2020-02-24 05:55:42,35.17,118.83,50.0,99,100,8.63,light rain,0.03700787401574803,0.0
87,Lompoc,US,2020-02-24 05:55:42,34.64,-120.46,53.01,87,90,15.08,overcast clouds,0.0,0.0
88,Tecoanapa,MX,2020-02-24 05:55:43,16.52,-98.75,70.83,88,0,1.14,clear sky,0.0,0.0
89,Namibe,AO,2020-02-24 05:55:43,-15.2,12.15,73.26,77,74,5.53,broken clouds,0.0,0.0
90,Seidu,SL,2020-02-24 05:55:43,9.02,-10.6,70.57,85,72,1.95,broken clouds,0.0,0.0
91,Pemangkat,ID,2020-02-24 05:55:43,1.17,108.97,84.88,75,35,13.38,light rain,0.022047244094488192,0.0
92,Coahuayana,MX,2020-02-24 05:55:43,18.73,-103.68,70.11,75,0,1.41,clear sky,0.0,0.0
93,Peterhead,GB,2020-02-24 05:55:43,57.51,-1.8,32.0,75,100,1.12,overcast clouds,0.0,0.0
94,Dalvik,IS,2020-02-24 05:55:44,65.97,-18.53,28.13,92,100,11.43,snow,0.0,0.0641732283464567
95,Hobart,AU,2020-02-24 05:52:08,-42.88,147.33,72.0,60,75,14.99,broken clouds,0.0,0.0
96,Cape Town,ZA,2020-02-24 05:55:44,-33.93,18.42,69.01,67,0,11.41,clear sky,0.0,0.0
97,Qaanaaq,GL,2020-02-24 05:55:44,77.48,-69.36,-16.91,54,0,5.46,clear sky,0.0,0.0
98,Srednekolymsk,RU,2020-02-24 05:55:45,67.45,153.68,-20.02,98,97,1.14,overcast clouds,0.0,0.0
99,Sheregesh,RU,2020-02-24 05:55:45,52.92,87.99,25.27,88,90,1.45,overcast clouds,0.0,0.0
100,Tuktoyaktuk,CA,2020-02-24 05:55:45,69.45,-133.04,-9.4,76,75,10.29,light snow,0.0,0.0
101,Salinopolis,BR,2020-02-24 05:55:45,-0.61,-47.36,81.63,82,39,13.47,light rain,0.05905511811023623,0.0
102,East London,ZA,2020-02-24 05:55:45,-33.02,27.91,60.8,82,15,6.93,few clouds,0.0,0.0
103,Vysokogornyy,RU,2020-02-24 05:55:45,50.12,139.15,16.27,84,100,3.56,overcast clouds,0.0,0.0
104,Kuching,MY,2020-02-24 05:52:38,1.55,110.33,80.6,83,40,10.29,light rain,0.0,0.0
105,Chokurdakh,RU,2020-02-24 05:55:46,70.63,147.92,-23.26,98,56,3.51,broken clouds,0.0,0.0
106,Mogzon,RU,2020-02-24 05:55:46,51.74,111.96,16.41,70,21,3.91,few clouds,0.0,0.0
107,Sibenik,HR,2020-02-24 05:55:46,43.73,15.91,44.6,87,100,3.36,overcast clouds,0.0,0.0
108,Vrangel,RU,2020-02-24 05:55:47,42.73,133.08,35.64,69,0,19.69,clear sky,0.0,0.0
109,Leningradskiy,RU,2020-02-24 05:55:47,69.38,178.42,-17.72,69,57,3.78,broken clouds,0.0,0.0
110,Redondela,ES,2020-02-24 05:55:47,42.28,-8.61,52.0,81,0,6.93,clear sky,0.0,0.0
111,Erzin,TR,2020-02-24 05:55:47,36.96,36.2,52.0,100,75,9.17,broken clouds,0.0,0.0
112,Cap Malheureux,MU,2020-02-24 05:55:48,-19.98,57.61,82.4,78,20,4.14,few clouds,0.0,0.0
113,Saint-Philippe,RE,2020-02-24 05:55:48,-21.36,55.77,84.2,65,45,5.82,scattered clouds,0.0,0.0
114,Lorengau,PG,2020-02-24 05:55:48,-2.02,147.27,84.31,69,69,3.13,broken clouds,0.0,0.0
115,Ponta Do Sol,PT,2020-02-24 05:55:48,32.67,-17.1,70.0,67,20,21.92,few clouds,0.0,0.0
116,Harper,LR,2020-02-24 05:55:48,4.38,-7.72,78.01,95,100,3.02,overcast clouds,0.0,0.0
117,Faanui,PF,2020-02-24 05:54:13,-16.48,-151.75,83.3,73,19,11.68,light rain,0.005118110236220473,0.0
118,Gimli,CA,2020-02-24 05:52:02,50.63,-96.99,23.0,83,46,5.99,scattered clouds,0.0,0.0
119,Fort Nelson,CA,2020-02-24 05:55:49,58.81,-122.7,12.2,78,75,3.36,broken clouds,0.0,0.0
120,Bethel,US,2020-02-24 05:55:49,41.37,-73.41,43.0,38,1,8.05,clear sky,0.0,0.0
121,Port Alfred,ZA,2020-02-24 05:55:49,-33.59,26.89,66.0,80,0,2.71,clear sky,0.0,0.0
122,Macas,EC,2020-02-24 05:55:50,-2.32,-78.12,62.58,98,100,1.68,overcast clouds,0.0,0.0
123,Esperance,AU,2020-02-24 05:51:24,-33.87,121.9,82.4,51,40,14.99,scattered clouds,0.0,0.0
124,Los Llanos De Aridane,ES,2020-02-24 05:55:50,28.66,-17.92,71.6,46,34,8.32,haze,0.0,0.0
125,Imbituba,BR,2020-02-24 05:55:50,-28.24,-48.67,68.0,94,32,4.7,scattered clouds,0.0,0.0
126,Ketchikan,US,2020-02-24 05:55:50,55.34,-131.65,35.6,92,75,11.41,broken clouds,0.0,0.0
127,San Patricio,MX,2020-02-24 05:55:51,19.22,-104.7,75.76,81,0,9.4,clear sky,0.0,0.0
128,Cherskiy,RU,2020-02-24 05:55:51,68.75,161.3,-25.73,88,57,3.65,broken clouds,0.0,0.0
129,San Cristobal,VE,2020-02-24 05:55:51,7.77,-72.22,78.8,74,75,3.36,broken clouds,0.0,0.0
130,Barrow,US,2020-02-24 05:55:51,71.29,-156.79,-18.4,75,90,12.75,overcast clouds,0.0,0.0
131,Aykhal,RU,2020-02-24 05:55:51,66.0,111.5,14.0,92,40,8.95,scattered clouds,0.0,0.0
132,Maniitsoq,GL,2020-02-24 05:55:52,65.42,-52.9,9.37,68,25,11.72,scattered clouds,0.0,0.0
133,Cangzhou,CN,2020-02-24 05:55:41,38.32,116.87,51.15,57,100,16.62,overcast clouds,0.0,0.0
134,Semnan,IR,2020-02-24 05:55:52,35.57,53.4,53.13,46,80,2.95,broken clouds,0.0,0.0
135,Mecca,SA,2020-02-24 05:54:58,21.43,39.83,71.92,59,39,0.51,scattered clouds,0.0,0.0
136,Kavieng,PG,2020-02-24 05:55:52,-2.57,150.8,84.65,73,12,12.64,few clouds,0.0,0.0
137,Bogande,BF,2020-02-24 05:55:53,12.97,-0.14,70.56,13,0,10.78,clear sky,0.0,0.0
138,San Quintin,MX,2020-02-24 05:55:53,30.48,-115.95,56.64,88,20,11.18,few clouds,0.0,0.0
139,Dali,CN,2020-02-24 05:55:53,25.7,100.18,62.96,39,18,7.2,few clouds,0.0,0.0
140,Mahebourg,MU,2020-02-24 05:55:53,-20.41,57.7,82.4,78,20,3.18,few clouds,0.0,0.0
141,Kwinana,AU,2020-02-24 05:55:53,-32.25,115.77,90.0,54,75,17.22,broken clouds,0.0,0.0
142,Bangolo,CI,2020-02-24 05:55:54,7.01,-7.47,74.37,92,76,2.39,broken clouds,0.0,0.0
143,Nuuk,GL,2020-02-24 05:55:54,64.18,-51.72,14.0,47,100,10.29,light snow,0.0,0.04921259842519685
144,Half Moon Bay,US,2020-02-24 05:55:54,37.46,-122.43,53.01,81,1,17.2,clear sky,0.0,0.0
145,Camacha,PT,2020-02-24 05:55:54,33.08,-16.33,62.6,87,40,13.87,scattered clouds,0.0,0.0
146,Enshi,CN,2020-02-24 05:55:54,30.3,109.48,57.76,81,85,5.32,light rain,0.007480314960629922,0.0
147,Cidreira,BR,2020-02-24 05:55:55,-30.18,-50.21,72.12,75,19,24.27,few clouds,0.0,0.0
148,Riyadh,SA,2020-02-24 05:51:15,24.69,46.72,69.8,64,40,11.41,scattered clouds,0.0,0.0
149,Victoria,HK,2020-02-24 05:55:47,22.29,114.16,80.01,64,20,17.22,few clouds,0.0,0.0
150,Vanino,RU,2020-02-24 05:55:55,49.09,140.25,12.51,85,39,4.16,scattered clouds,0.0,0.0
151,Marathon,US,2020-02-24 05:55:55,44.9,-89.77,33.8,92,1,8.05,clear sky,0.0,0.0
152,Saskylakh,RU,2020-02-24 05:55:56,71.92,114.08,12.9,92,88,11.07,overcast clouds,0.0,0.0
153,Severo-Kurilsk,RU,2020-02-24 05:55:56,50.68,156.12,26.11,95,100,31.97,snow,0.0,0.06653543307086614
154,Dikson,RU,2020-02-24 05:55:56,73.51,80.55,22.77,90,100,26.11,light snow,0.0,0.007480314960629922
155,Kribi,CM,2020-02-24 05:54:00,2.95,9.92,79.0,90,100,4.43,light rain,0.004724409448818898,0.0
156,Dennery,LC,2020-02-24 05:55:56,13.9,-60.89,75.2,88,75,6.93,light intensity shower rain,0.0,0.0
157,Atuona,PF,2020-02-24 05:55:57,-9.8,-139.03,81.23,79,18,14.52,few clouds,0.0,0.0
158,Saint George,US,2020-02-24 05:52:14,37.1,-113.58,48.0,57,0,2.62,clear sky,0.0,0.0
159,Makakilo City,US,2020-02-24 05:55:30,21.35,-158.09,77.0,69,1,4.7,clear sky,0.0,0.0
160,Nizhniy Baskunchak,RU,2020-02-24 05:55:57,48.22,46.83,38.39,92,100,14.97,light rain,0.00984251968503937,0.0
161,Hamilton,US,2020-02-24 05:55:57,39.18,-84.53,42.8,91,1,5.64,clear sky,0.0,0.0
162,Deputatskiy,RU,2020-02-24 05:55:57,69.3,139.9,-18.65,93,0,3.29,clear sky,0.0,0.0
163,Vuktyl,RU,2020-02-24 05:55:58,63.86,57.31,25.61,90,100,16.6,light snow,0.0,0.00984251968503937
164,Kittery,US,2020-02-24 05:55:58,43.09,-70.74,37.99,92,1,14.23,clear sky,0.0,0.0
165,Nikolskoye,RU,2020-02-24 05:55:58,59.7,30.79,35.6,97,90,11.18,overcast clouds,0.0,0.0
166,Pevek,RU,2020-02-24 05:55:58,69.7,170.31,-21.39,92,14,8.08,few clouds,0.0,0.0
167,Sao Filipe,CV,2020-02-24 05:55:58,14.9,-24.5,67.05,83,13,14.56,few clouds,0.0,0.0
168,Nanortalik,GL,2020-02-24 05:55:59,60.14,-45.24,26.37,91,100,10.0,snow,0.0,0.061417322834645675
169,Hithadhoo,MV,2020-02-24 05:55:59,-0.6,73.08,83.39,78,39,12.15,scattered clouds,0.0,0.0
170,Ryazhsk,RU,2020-02-24 05:55:59,53.7,40.11,25.36,92,23,9.06,few clouds,0.0,0.0
171,Bosaso,SO,2020-02-24 05:55:59,11.28,49.18,78.8,100,40,5.82,scattered clouds,0.0,0.0
172,Port-Gentil,GA,2020-02-24 05:55:59,-0.72,8.78,78.8,100,20,6.71,few clouds,0.0,0.0
173,Dulce Nombre,HN,2020-02-24 05:56:00,14.85,-88.83,60.44,97,35,1.25,scattered clouds,0.0,0.0
174,Pangnirtung,CA,2020-02-24 05:56:00,66.15,-65.71,-31.99,97,100,0.81,overcast clouds,0.0,0.0
175,Longyearbyen,SJ,2020-02-24 05:56:00,78.22,15.64,-2.2,77,20,2.24,few clouds,0.0,0.0
176,Vostok,RU,2020-02-24 05:56:00,46.49,135.88,22.15,89,100,4.79,light snow,0.0,0.014960629921259844
177,Qandala,SO,2020-02-24 05:56:00,11.47,49.87,76.44,63,38,5.61,scattered clouds,0.0,0.0
178,Carndonagh,IE,2020-02-24 05:56:00,55.25,-7.27,32.81,100,100,10.67,snow,0.0,0.3641732283464567
179,Bara,NG,2020-02-24 05:56:01,10.37,10.73,63.68,24,0,7.02,clear sky,0.0,0.0
180,Chernyshevskiy,RU,2020-02-24 05:56:01,63.01,112.47,18.66,91,100,12.35,light snow,0.0,0.014960629921259844
181,Taybad,IR,2020-02-24 05:56:01,34.74,60.78,55.83,55,0,1.14,clear sky,0.0,0.0
182,Urucui,BR,2020-02-24 05:56:01,-7.23,-44.56,72.84,90,27,0.87,scattered clouds,0.0,0.0
183,Kununurra,AU,2020-02-24 05:56:02,-15.77,128.73,104.0,23,40,8.05,scattered clouds,0.0,0.0
184,Karratha,AU,2020-02-24 05:56:02,-20.74,116.85,84.67,70,80,12.12,broken clouds,0.0,0.0
185,Malmesbury,ZA,2020-02-24 05:56:02,-33.46,18.73,69.01,67,0,11.41,clear sky,0.0,0.0
186,Sunndalsora,NO,2020-02-24 05:56:02,62.68,8.55,33.8,94,75,23.04,light shower snow,0.0,0.0
187,Kuremaa,EE,2020-02-24 05:56:03,58.74,26.54,35.01,81,15,11.41,few clouds,0.0,0.0
188,Bom Jesus,BR,2020-02-24 05:56:03,-9.07,-44.36,71.24,90,60,0.22,broken clouds,0.0,0.0
189,Natalinsk,RU,2020-02-24 05:56:03,56.47,57.87,25.02,90,100,14.83,light snow,0.0,0.005118110236220473
190,Pandan,PH,2020-02-24 05:56:03,14.05,124.17,81.77,72,8,15.23,light rain,0.03188976377952756,0.0
191,Guarapari,BR,2020-02-24 05:56:03,-20.67,-40.5,75.0,88,75,3.98,broken clouds,0.0,0.0
192,Luanda,AO,2020-02-24 05:56:03,-8.84,13.23,78.8,88,75,2.24,broken clouds,0.0,0.0
193,Kindu,CD,2020-02-24 05:56:04,-2.95,25.95,72.32,98,100,3.89,light rain,0.04921259842519685,0.0
194,Pringsewu,ID,2020-02-24 05:56:04,-5.36,104.97,86.81,59,14,8.01,few clouds,0.0,0.0
195,Thompson,CA,2020-02-24 05:56:04,55.74,-97.86,10.4,78,90,3.36,light snow,0.0,0.0
196,Chulman,RU,2020-02-24 05:56:04,56.85,124.91,10.85,85,100,10.85,light snow,0.0,0.005118110236220473
197,Lumeje,AO,2020-02-24 05:56:04,-11.55,20.78,68.0,89,100,8.01,light rain,0.022047244094488192,0.0
198,Port Hedland,AU,2020-02-24 05:56:05,-20.32,118.57,95.0,50,75,12.75,broken clouds,0.0,0.0
199,Moose Factory,CA,2020-02-24 05:56:05,51.26,-80.61,21.2,85,90,9.17,light snow,0.0,0.0
200,Doka,SD,2020-02-24 05:56:05,13.52,35.77,75.06,45,0,4.88,clear sky,0.0,0.0
201,Sitka,US,2020-02-24 05:56:05,57.05,-135.33,30.2,80,40,8.05,scattered clouds,0.0,0.0
202,Wahpeton,US,2020-02-24 05:56:05,46.27,-96.61,24.8,92,0,5.82,clear sky,0.0,0.0
203,Dingle,PH,2020-02-24 05:56:05,11.0,122.67,84.43,65,55,15.55,light rain,0.00984251968503937,0.0
204,Alice Springs,AU,2020-02-24 05:56:06,-23.7,133.88,95.0,17,43,17.22,scattered clouds,0.0,0.0
205,Komsomolskiy,UZ,2020-02-24 05:56:06,40.43,71.72,48.2,81,75,11.41,shower rain,0.0,0.0
206,Gornopravdinsk,RU,2020-02-24 05:56:06,60.05,69.9,23.05,91,97,10.71,overcast clouds,0.0,0.0
207,Hasaki,JP,2020-02-24 05:56:06,35.73,140.83,63.0,41,20,6.93,few clouds,0.0,0.0
208,Geraldton,AU,2020-02-24 05:52:18,-28.77,114.6,84.2,54,0,18.34,light rain,0.024803149606299216,0.0
209,Tsiroanomandidy,MG,2020-02-24 05:56:07,-18.77,46.03,75.18,85,56,3.85,light rain,0.005118110236220473,0.0
210,Asau,RO,2020-02-24 05:56:07,46.43,26.4,54.0,81,75,12.75,light rain,0.0,0.0
211,Naze,JP,2020-02-24 05:56:07,28.37,129.48,68.0,56,0,3.36,clear sky,0.0,0.0
212,Sindor,RU,2020-02-24 05:56:07,62.86,51.89,26.6,91,100,13.51,light snow,0.0,0.00984251968503937
213,Clyde River,CA,2020-02-24 05:56:08,70.47,-68.59,-16.6,75,90,14.99,light snow,0.0,0.0
214,Tonantins,BR,2020-02-24 05:56:08,-2.87,-67.8,73.33,98,100,1.19,moderate rain,0.13543307086614173,0.0
215,Dhana,IN,2020-02-24 05:56:08,23.75,78.85,78.96,30,0,6.96,clear sky,0.0,0.0
216,Avera,US,2020-02-24 05:56:08,33.19,-82.53,53.01,81,75,3.49,broken clouds,0.0,0.0
217,Iqaluit,CA,2020-02-24 05:56:08,63.75,-68.51,-27.0,67,20,3.36,few clouds,0.0,0.0
218,Quang Ngai,VN,2020-02-24 05:53:02,15.12,108.8,73.29,75,4,9.42,clear sky,0.0,0.0
219,Abu Dhabi,AE,2020-02-24 05:51:48,24.47,54.37,75.2,69,100,8.05,overcast clouds,0.0,0.0
220,Hambantota,LK,2020-02-24 05:56:09,6.12,81.12,87.8,70,40,16.11,scattered clouds,0.0,0.0
221,Apiai,BR,2020-02-24 05:56:09,-24.51,-48.84,57.87,96,64,1.45,broken clouds,0.0,0.0
222,Korgen,NO,2020-02-24 05:56:09,66.08,13.82,32.0,63,40,17.22,light shower snow,0.0,0.0
223,Cabedelo,BR,2020-02-24 05:56:10,-6.98,-34.83,78.8,88,20,4.7,few clouds,0.0,0.0
224,Cayenne,GF,2020-02-24 05:55:32,4.93,-52.33,78.8,88,75,9.17,broken clouds,0.0,0.0
225,Olonets,RU,2020-02-24 05:56:10,60.98,32.97,32.43,92,100,7.61,overcast clouds,0.0,0.0
226,Port Keats,AU,2020-02-24 05:56:10,-14.25,129.55,91.38,60,100,12.75,overcast clouds,0.0,0.0
227,Tura,IN,2020-02-24 05:56:10,25.52,90.22,86.92,30,100,2.1,overcast clouds,0.0,0.0
228,Beihai,CN,2020-02-24 05:56:10,21.48,109.1,68.97,84,0,8.77,clear sky,0.0,0.0
229,Colwyn Bay,GB,2020-02-24 05:56:11,53.29,-3.73,50.0,93,100,32.21,heavy intensity rain,0.0,0.0
230,Bengkulu,ID,2020-02-24 05:55:36,-3.8,102.27,92.75,48,7,3.11,clear sky,0.0,0.0
231,Okhotsk,RU,2020-02-24 05:56:11,59.38,143.3,-2.16,79,69,5.3,broken clouds,0.0,0.0
232,Ostashkov,RU,2020-02-24 05:56:11,57.15,33.11,32.45,97,100,8.61,light snow,0.0,0.03700787401574803
233,Palmer,US,2020-02-24 05:56:12,42.16,-72.33,37.0,85,1,3.36,clear sky,0.0,0.0
234,Maragogi,BR,2020-02-24 05:53:36,-9.01,-35.22,81.66,78,66,14.29,light rain,0.01968503937007874,0.0
235,Andijon,UZ,2020-02-24 05:56:12,40.78,72.34,48.2,87,90,8.95,mist,0.0,0.0
236,Takoradi,GH,2020-02-24 05:56:12,4.88,-1.76,77.11,94,32,2.44,scattered clouds,0.0,0.0
237,San Luis,AR,2020-02-24 05:55:36,-33.3,-66.34,70.18,44,0,18.9,clear sky,0.0,0.0
238,Shirokiy,RU,2020-02-24 05:56:13,49.76,129.52,17.35,88,100,10.07,overcast clouds,0.0,0.0
239,Yuzhno-Kurilsk,RU,2020-02-24 05:56:13,44.03,145.86,26.96,62,86,16.71,overcast clouds,0.0,0.0
240,Kaduqli,SD,2020-02-24 05:53:51,11.02,29.72,74.28,14,34,18.68,scattered clouds,0.0,0.0
241,Dubbo,AU,2020-02-24 05:56:13,-32.25,148.62,80.6,44,90,3.36,overcast clouds,0.0,0.0
242,Carnarvon,AU,2020-02-24 05:56:13,-24.87,113.63,84.2,54,0,12.75,clear sky,0.0,0.0
243,Goroka,PG,2020-02-24 05:56:14,-6.08,145.39,69.17,73,100,3.33,light rain,0.01968503937007874,0.0
244,Pitimbu,BR,2020-02-24 05:56:14,-7.47,-34.81,78.8,88,20,4.7,few clouds,0.0,0.0
245,Baruun-Urt,MN,2020-02-24 05:56:14,46.68,113.28,15.28,83,100,10.51,overcast clouds,0.0,0.0
246,Jiayuguan,CN,2020-02-24 05:56:14,39.82,98.3,48.78,17,0,6.22,clear sky,0.0,0.0
247,Svetlyy,RU,2020-02-24 05:56:15,54.67,20.13,41.0,80,75,15.66,broken clouds,0.0,0.0
248,Honningsvag,NO,2020-02-24 05:56:15,70.98,25.97,35.6,97,90,26.4,overcast clouds,0.0,0.0
249,Roald,NO,2020-02-24 05:56:15,62.58,6.13,35.01,94,90,11.41,light snow,0.0,0.0
250,Lagos,NG,2020-02-24 05:56:15,6.58,3.75,82.4,94,40,8.05,scattered clouds,0.0,0.0
251,Carutapera,BR,2020-02-24 05:56:15,-1.2,-46.02,81.79,81,52,11.14,light rain,0.007480314960629922,0.0
252,Narsaq,GL,2020-02-24 05:56:16,60.92,-46.05,21.2,85,100,3.36,light snow,0.0,0.0
253,Kongolo,CD,2020-02-24 05:55:15,-5.38,27.0,72.32,95,97,5.44,overcast clouds,0.0,0.0
254,Vangaindrano,MG,2020-02-24 05:56:16,-23.35,47.6,82.47,78,94,2.21,overcast clouds,0.0,0.0
255,Inhambane,MZ,2020-02-24 05:56:16,-23.86,35.38,77.0,69,75,13.87,broken clouds,0.0,0.0
256,Lebu,CL,2020-02-24 05:56:16,-37.62,-73.65,53.53,98,23,4.29,few clouds,0.0,0.0
257,Garachine,PA,2020-02-24 05:56:17,8.06,-78.36,77.43,82,33,16.89,scattered clouds,0.0,0.0
258,Mahanoro,MG,2020-02-24 05:56:17,-19.9,48.8,80.46,82,70,9.26,broken clouds,0.0,0.0
259,Casper,US,2020-02-24 05:56:17,42.87,-106.31,32.0,72,1,26.4,clear sky,0.0,0.0
260,Guaruja,BR,2020-02-24 05:56:17,-23.99,-46.26,73.0,82,90,5.82,overcast clouds,0.0,0.0
261,Vestmannaeyjar,IS,2020-02-24 05:56:17,63.44,-20.27,40.24,64,100,21.09,light snow,0.0,0.046850393700787404
262,Christchurch,NZ,2020-02-24 05:56:18,-43.53,172.63,64.99,68,9,23.04,clear sky,0.0,0.0
263,Kaitangata,NZ,2020-02-24 05:56:18,-46.28,169.85,64.0,64,46,7.0,scattered clouds,0.0,0.0
264,Bogorodskoye,RU,2020-02-24 05:56:18,56.55,37.88,32.02,94,99,12.5,light snow,0.0,0.01732283464566929
265,Mokshan,RU,2020-02-24 05:56:18,53.44,44.61,35.01,68,78,11.25,broken clouds,0.0,0.0
266,Lucea,JM,2020-02-24 05:56:19,18.45,-78.17,78.8,65,20,3.36,few clouds,0.0,0.0
267,Paso De Los Toros,UY,2020-02-24 05:56:19,-32.82,-56.52,63.09,76,0,12.53,clear sky,0.0,0.0
268,Tiksi,RU,2020-02-24 05:56:19,71.69,128.87,-3.64,87,98,7.31,overcast clouds,0.0,0.0
269,Bubaque,GW,2020-02-24 05:56:19,11.28,-15.83,80.2,65,93,7.76,overcast clouds,0.0,0.0
270,Jalu,LY,2020-02-24 05:56:19,29.03,21.55,50.9,75,43,6.31,scattered clouds,0.0,0.0
271,Notre-Dame-Du-Lac,CA,2020-02-24 05:56:20,47.61,-68.8,28.4,68,1,5.82,clear sky,0.0,0.0
272,Liverpool,GB,2020-02-24 05:54:27,53.41,-2.98,42.01,93,90,16.11,moderate rain,0.0,0.0
273,Mar Del Plata,AR,2020-02-24 05:53:54,-38.0,-57.56,64.99,93,0,12.75,clear sky,0.0,0.0
274,Kangaba,ML,2020-02-24 05:56:20,11.93,-8.42,72.68,16,51,5.37,broken clouds,0.0,0.0
275,Gat,IL,2020-02-24 05:56:20,31.61,34.76,52.0,87,40,1.12,scattered clouds,0.0,0.0
276,Avanigadda,IN,2020-02-24 05:56:20,16.02,80.92,86.0,62,40,5.82,haze,0.0,0.0
277,Kafue,ZM,2020-02-24 05:56:21,-15.77,28.18,69.4,95,100,9.75,moderate rain,0.1551181102362205,0.0
278,Seoul,KR,2020-02-24 05:54:30,37.57,126.98,55.4,40,20,5.82,few clouds,0.0,0.0
279,Iwaki,JP,2020-02-24 05:56:21,37.05,140.88,57.99,31,20,17.22,few clouds,0.0,0.0
280,Faya,SA,2020-02-24 05:56:21,18.39,42.45,62.6,77,20,5.82,few clouds,0.0,0.0
281,Oistins,BB,2020-02-24 05:56:21,13.07,-59.53,78.8,83,20,13.87,few clouds,0.0,0.0
282,Saint-Augustin,CA,2020-02-24 05:56:22,51.23,-58.65,9.59,82,66,6.04,broken clouds,0.0,0.0
283,Ferme-Neuve,CA,2020-02-24 05:56:22,46.7,-75.45,29.3,85,52,8.52,broken clouds,0.0,0.0
284,Alekseyevka,RU,2020-02-24 05:56:22,50.63,38.69,34.54,98,100,10.45,light snow,0.0,0.01732283464566929
285,Sabang,ID,2020-02-24 05:56:22,5.89,95.32,82.24,77,24,23.31,few clouds,0.0,0.0
286,Monrovia,LR,2020-02-24 05:56:19,6.3,-10.8,75.2,94,75,8.05,mist,0.0,0.0
287,Kavaratti,IN,2020-02-24 05:56:23,10.57,72.64,86.0,70,20,4.7,few clouds,0.0,0.0
288,Laguna,US,2020-02-24 05:56:23,38.42,-121.42,55.0,87,1,1.9,clear sky,0.0,0.0
289,Quatre Cocos,MU,2020-02-24 05:56:23,-20.21,57.76,82.4,78,20,1.99,few clouds,0.0,0.0
290,Torbat-E Jam,IR,2020-02-24 05:56:23,35.24,60.62,56.34,43,0,2.86,clear sky,0.0,0.0
291,Noumea,NC,2020-02-24 05:53:12,-22.28,166.46,86.0,58,75,17.22,broken clouds,0.0,0.0
292,Camana,PE,2020-02-24 05:56:23,-16.62,-72.71,68.67,84,79,2.75,broken clouds,0.0,0.0
293,Gobabis,NA,2020-02-24 05:56:24,-22.45,18.97,66.2,81,53,8.93,light rain,0.005118110236220473,0.0
294,Tuy Hoa,VN,2020-02-24 05:53:36,13.08,109.3,73.33,82,65,18.41,light rain,0.005118110236220473,0.0
295,Den Helder,NL,2020-02-24 05:56:24,52.96,4.76,43.0,86,90,9.17,overcast clouds,0.0,0.0
296,Cruzilia,BR,2020-02-24 05:56:24,-21.84,-44.81,58.68,94,100,2.86,overcast clouds,0.0,0.0
297,Crotone,IT,2020-02-24 05:56:24,39.09,17.12,48.74,63,6,1.28,clear sky,0.0,0.0
298,Assiniboia,CA,2020-02-24 05:56:25,49.63,-105.98,21.65,83,100,8.01,overcast clouds,0.0,0.0
299,Key West,US,2020-02-24 05:56:25,24.56,-81.78,72.0,60,20,8.05,few clouds,0.0,0.0
300,Yulara,AU,2020-02-24 05:56:25,-25.24,130.99,98.6,9,0,16.11,clear sky,0.0,0.0
301,Sisimiut,GL,2020-02-24 05:56:25,66.94,-53.67,-7.28,90,64,3.98,broken clouds,0.0,0.0
302,Solothurn,CH,2020-02-24 05:56:25,47.21,7.54,55.4,81,75,5.82,broken clouds,0.0,0.0
303,Redding,US,2020-02-24 05:56:26,40.59,-122.39,48.2,74,20,3.36,few clouds,0.0,0.0
304,Hami,CN,2020-02-24 05:56:26,42.8,93.45,41.4,35,11,4.79,few clouds,0.0,0.0
305,Aitape,PG,2020-02-24 05:56:26,-3.14,142.35,83.59,76,64,11.74,broken clouds,0.0,0.0
306,Ugra,RU,2020-02-24 05:56:26,54.78,34.33,29.97,92,59,5.73,broken clouds,0.0,0.0
307,Atar,MR,2020-02-24 05:56:26,20.52,-13.05,74.16,23,97,7.45,overcast clouds,0.0,0.0
308,Warrington,GB,2020-02-24 05:56:27,53.39,-2.58,42.01,93,90,16.11,moderate rain,0.0,0.0
309,Marang,MY,2020-02-24 05:56:27,5.21,103.21,84.2,74,40,8.05,scattered clouds,0.0,0.0
310,Saldanha,ZA,2020-02-24 05:56:27,-33.01,17.94,66.2,45,0,4.7,clear sky,0.0,0.0
311,Pisco,PE,2020-02-24 05:56:27,-13.7,-76.22,75.2,83,90,4.7,overcast clouds,0.0,0.0
312,Thai Nguyen,VN,2020-02-24 05:56:28,21.59,105.84,77.0,61,40,6.93,scattered clouds,0.0,0.0
313,Chauk,MM,2020-02-24 05:56:28,20.88,94.82,86.27,21,0,7.96,clear sky,0.0,0.0
314,Luderitz,NA,2020-02-24 05:56:28,-26.65,15.16,67.05,73,0,15.17,clear sky,0.0,0.0
315,Usinsk,RU,2020-02-24 05:56:28,65.99,57.53,26.49,88,100,26.96,light snow,0.0,0.005118110236220473
316,Retiro,AR,2020-02-24 05:56:28,-34.58,-58.38,73.4,60,0,10.29,clear sky,0.0,0.0
317,Pangai,TO,2020-02-24 05:56:29,-19.8,-174.35,84.2,83,20,8.05,few clouds,0.0,0.0
318,Rassvet,RU,2020-02-24 05:56:29,46.83,40.75,41.5,82,100,14.67,light rain,0.007480314960629922,0.0
319,Santa Cruz,BO,2020-02-24 05:54:39,-17.8,-63.17,71.6,78,75,3.36,broken clouds,0.0,0.0
320,Muravlenko,RU,2020-02-24 05:56:29,63.79,74.52,27.21,86,100,28.12,overcast clouds,0.0,0.0
321,Labuhan,ID,2020-02-24 05:56:29,-6.88,112.21,85.53,76,8,5.23,moderate rain,0.21417322834645672,0.0
322,Yekepa,LR,2020-02-24 05:56:30,7.58,-8.54,72.05,98,83,1.86,broken clouds,0.0,0.0
323,Khandagayty,RU,2020-02-24 05:56:30,50.73,92.05,12.9,93,100,3.87,light snow,0.0,0.012204724409448819
324,Kisesa,TZ,2020-02-24 05:56:30,-3.08,34.15,70.05,79,100,4.47,overcast clouds,0.0,0.0
325,Mopipi,BW,2020-02-24 05:56:30,-21.18,24.88,69.17,75,99,18.61,light rain,0.029527559055118113,0.0
326,Poum,NC,2020-02-24 05:56:30,-20.23,164.02,81.03,72,65,19.69,broken clouds,0.0,0.0
327,Kyzyl-Suu,KG,2020-02-24 05:56:31,42.34,78.0,34.7,81,98,4.56,overcast clouds,0.0,0.0
328,Kenitra,MA,2020-02-24 05:56:31,34.26,-6.58,62.01,93,0,4.7,clear sky,0.0,0.0
329,Smolenka,RU,2020-02-24 05:56:31,52.14,113.5,24.8,38,0,4.47,clear sky,0.0,0.0
330,Calabozo,VE,2020-02-24 05:56:31,8.92,-67.43,75.76,68,39,4.88,scattered clouds,0.0,0.0
331,Touros,BR,2020-02-24 05:56:31,-5.2,-35.46,77.0,94,40,3.36,scattered clouds,0.0,0.0
332,Khandyga,RU,2020-02-24 05:56:32,62.67,135.6,0.39,92,100,2.82,light snow,0.0,0.007480314960629922
333,Bowen,AU,2020-02-24 05:56:32,-20.02,148.23,84.0,78,75,6.93,broken clouds,0.0,0.0
334,Springdale,US,2020-02-24 05:55:16,36.19,-94.13,48.2,93,90,12.75,moderate rain,0.0,0.0
335,Iracoubo,GF,2020-02-24 05:56:32,5.48,-53.2,78.26,84,99,17.18,light rain,0.014960629921259844,0.0
336,Puerto Varas,CL,2020-02-24 05:56:33,-41.32,-72.99,48.99,91,72,3.96,light rain,0.01968503937007874,0.0
337,Manggar,ID,2020-02-24 05:56:33,-2.88,108.27,82.98,79,0,14.58,clear sky,0.0,0.0
338,Fairbanks,US,2020-02-24 05:53:12,64.84,-147.72,-5.8,83,1,1.68,clear sky,0.0,0.0
339,Neryungri,RU,2020-02-24 05:56:33,56.67,124.65,9.88,83,99,16.75,light snow,0.0,0.005118110236220473
340,Calvia,ES,2020-02-24 05:56:33,39.57,2.51,59.0,93,0,3.36,clear sky,0.0,0.0
341,Tasiilaq,GL,2020-02-24 05:56:34,65.61,-37.64,8.6,65,15,4.7,few clouds,0.0,0.0
342,Thinadhoo,MV,2020-02-24 05:56:34,0.53,72.93,83.32,79,63,14.99,light rain,0.007480314960629922,0.0
343,Nanpiao,CN,2020-02-24 05:56:34,41.1,120.75,43.5,31,99,13.33,overcast clouds,0.0,0.0
344,Gamba,GA,2020-02-24 05:56:34,-2.65,10.0,77.29,91,98,4.7,overcast clouds,0.0,0.0
345,Goma,CD,2020-02-24 05:55:05,-1.68,29.22,66.2,77,75,6.93,broken clouds,0.0,0.0
346,Shingu,JP,2020-02-24 05:56:35,33.73,135.98,57.2,42,0,11.41,clear sky,0.0,0.0
347,Sao Lourenco Do Sul,BR,2020-02-24 05:56:35,-31.37,-51.98,61.0,89,23,14.47,few clouds,0.0,0.0
348,Ostrovnoy,RU,2020-02-24 05:56:35,68.05,39.51,22.3,91,100,5.86,overcast clouds,0.0,0.0
349,Nantucket,US,2020-02-24 05:56:35,41.28,-70.1,39.99,78,1,5.82,clear sky,0.0,0.0
350,Artyom,AZ,2020-02-24 05:56:35,40.47,50.33,46.4,81,90,9.17,overcast clouds,0.0,0.0
351,Dalen,NL,2020-02-24 05:56:36,52.7,6.76,39.99,86,75,4.7,broken clouds,0.0,0.0
352,Port Macquarie,AU,2020-02-24 05:56:36,-31.43,152.92,78.01,94,75,3.36,light intensity shower rain,0.0,0.0
353,Wanning,CN,2020-02-24 05:56:36,18.8,110.4,76.21,70,27,6.11,light rain,0.00984251968503937,0.0
354,Te Anau,NZ,2020-02-24 05:56:36,-45.42,167.72,58.64,66,10,9.26,clear sky,0.0,0.0
355,Beloha,MG,2020-02-24 05:56:36,-25.17,45.05,77.31,84,81,2.89,broken clouds,0.0,0.0
356,Acapulco,MX,2020-02-24 05:56:36,16.86,-99.89,78.8,83,5,6.93,clear sky,0.0,0.0
357,Varzea Da Palma,BR,2020-02-24 05:54:38,-17.6,-44.73,69.04,90,100,11.45,overcast clouds,0.0,0.0
358,Colesberg,ZA,2020-02-24 05:56:37,-30.72,25.1,58.86,53,0,10.85,clear sky,0.0,0.0
359,Pauini,BR,2020-02-24 05:56:37,-7.71,-66.98,72.23,99,97,1.79,light rain,0.04921259842519685,0.0
360,Waingapu,ID,2020-02-24 05:56:37,-9.66,120.26,84.36,76,100,18.01,overcast clouds,0.0,0.0
361,Sakakah,SA,2020-02-24 05:56:37,29.97,40.21,53.6,46,100,4.7,overcast clouds,0.0,0.0
362,Yar-Sale,RU,2020-02-24 05:56:38,66.83,70.83,27.91,86,100,26.55,overcast clouds,0.0,0.0
363,Yumen,CN,2020-02-24 05:56:38,40.28,97.2,47.05,19,6,6.2,clear sky,0.0,0.0
364,Eureka,US,2020-02-24 05:55:41,40.8,-124.16,46.99,87,20,8.05,few clouds,0.0,0.0
365,Umred,IN,2020-02-24 05:56:38,20.85,79.33,78.8,57,13,4.7,mist,0.0,0.0
366,Ashland,US,2020-02-24 05:56:01,40.82,-82.27,41.0,51,1,4.7,clear sky,0.0,0.0
367,Sinnamary,GF,2020-02-24 05:56:39,5.38,-52.95,78.26,84,99,17.18,light rain,0.014960629921259844,0.0
368,Phalodi,IN,2020-02-24 05:56:39,27.13,72.37,76.5,29,0,4.9,clear sky,0.0,0.0
369,Kitgum,UG,2020-02-24 05:56:39,3.28,32.89,83.98,28,86,6.71,overcast clouds,0.0,0.0
370,Kotido,UG,2020-02-24 05:56:39,2.98,34.13,79.83,28,100,17.9,overcast clouds,0.0,0.0
371,Tautira,PF,2020-02-24 05:56:39,-17.73,-149.15,82.4,74,40,5.82,scattered clouds,0.0,0.0
372,Riohacha,CO,2020-02-24 05:56:40,11.54,-72.91,72.54,90,8,6.69,clear sky,0.0,0.0
373,Yerbogachen,RU,2020-02-24 05:52:34,61.28,108.01,20.01,85,100,13.98,overcast clouds,0.0,0.0
374,Mao,ES,2020-02-24 05:56:40,39.89,4.27,50.0,93,0,5.82,clear sky,0.0,0.0
375,Flinders,AU,2020-02-24 05:56:40,-34.58,150.86,84.0,54,20,16.11,few clouds,0.0,0.0
376,Grand Gaube,MU,2020-02-24 05:56:40,-20.01,57.66,82.4,78,20,4.14,few clouds,0.0,0.0
377,Shenkursk,RU,2020-02-24 05:56:40,62.11,42.9,33.04,92,96,10.87,light snow,0.0,0.014960629921259844
378,Berekua,DM,2020-02-24 05:56:41,15.23,-61.32,78.48,79,2,11.21,light rain,0.005118110236220473,0.0
379,Paramonga,PE,2020-02-24 05:56:41,-10.67,-77.83,72.66,86,72,7.99,broken clouds,0.0,0.0
380,Dargaville,NZ,2020-02-24 05:56:41,-35.93,173.88,67.1,61,0,7.65,clear sky,0.0,0.0
381,Haapiti,PF,2020-02-24 05:56:41,-17.57,-149.87,82.4,74,40,5.82,scattered clouds,0.0,0.0
382,Caldwell,US,2020-02-24 05:56:41,43.66,-116.69,39.2,41,1,19.46,clear sky,0.0,0.0
383,Dogondoutchi,NE,2020-02-24 05:56:42,13.64,4.03,70.66,16,0,14.81,clear sky,0.0,0.0
384,Arlit,NE,2020-02-24 05:56:42,18.74,7.39,57.13,26,0,10.45,clear sky,0.0,0.0
385,Whitehorse,CA,2020-02-24 05:54:31,60.72,-135.05,19.4,85,90,8.05,light snow,0.0,0.0
386,Shimoda,JP,2020-02-24 05:56:42,34.67,138.95,55.4,54,20,8.05,few clouds,0.0,0.0
387,Athabasca,CA,2020-02-24 05:56:42,54.72,-113.29,14.65,87,72,5.57,broken clouds,0.0,0.0
388,Margate,GB,2020-02-24 05:55:37,51.38,1.39,46.4,93,75,11.41,drizzle rain,0.0,0.0
389,Denpasar,ID,2020-02-24 05:56:43,-8.65,115.22,89.6,70,20,6.93,few clouds,0.0,0.0
390,Santa Cruz Del Sur,CU,2020-02-24 05:56:43,20.71,-78.0,74.57,80,7,24.74,clear sky,0.0,0.0
391,Constitucion,CL,2020-02-24 05:56:43,-35.33,-72.42,51.46,94,74,5.12,broken clouds,0.0,0.0
392,Verkhnevilyuysk,RU,2020-02-24 05:56:43,63.45,120.32,7.48,92,100,7.67,overcast clouds,0.0,0.0
393,Honiara,SB,2020-02-24 05:56:44,-9.43,159.95,89.6,70,40,4.7,scattered clouds,0.0,0.0
394,Sistranda,NO,2020-02-24 05:56:44,63.73,8.83,35.6,74,40,21.92,shower rain,0.0,0.0
395,Nouadhibou,MR,2020-02-24 05:56:44,20.93,-17.03,73.4,60,82,16.11,light rain,0.007480314960629922,0.0
396,North Bend,US,2020-02-24 05:56:44,43.41,-124.22,44.6,75,90,1.7,overcast clouds,0.0,0.0
397,Bambanglipuro,ID,2020-02-24 05:56:45,-7.95,110.28,87.37,65,33,5.75,moderate rain,0.13031496062992126,0.0
398,Dong Hoi,VN,2020-02-24 05:56:45,17.48,106.6,72.01,77,38,8.03,scattered clouds,0.0,0.0
399,San Policarpo,PH,2020-02-24 05:56:45,12.18,125.51,81.3,74,18,15.08,few clouds,0.0,0.0
400,Olafsvik,IS,2020-02-24 05:56:45,64.89,-23.71,34.74,82,100,12.5,light snow,0.0,0.03937007874015748
401,Prince George,CA,2020-02-24 05:55:22,53.92,-122.75,26.6,68,90,5.82,overcast clouds,0.0,0.0
402,Vila Franca Do Campo,PT,2020-02-24 05:56:46,37.72,-25.43,51.8,81,20,3.36,few clouds,0.0,0.0
403,Korla,CN,2020-02-24 05:56:46,41.76,86.15,42.01,85,75,1.99,broken clouds,0.0,0.0
404,Benjamin Constant,BR,2020-02-24 05:56:46,-4.38,-70.03,75.2,100,75,1.43,broken clouds,0.0,0.0
405,Santiago De Cao,PE,2020-02-24 05:56:46,-7.96,-79.24,73.4,88,75,5.82,mist,0.0,0.0
406,Inirida,CO,2020-02-24 05:52:03,3.87,-67.92,74.7,93,61,1.3,broken clouds,0.0,0.0
407,Westport,US,2020-02-24 05:56:46,41.14,-73.36,46.0,55,1,3.36,clear sky,0.0,0.0
408,Nagato,JP,2020-02-24 05:56:47,34.38,131.2,59.0,62,46,8.05,scattered clouds,0.0,0.0
409,Taitung,TW,2020-02-24 05:56:47,22.76,121.14,78.8,61,20,8.05,few clouds,0.0,0.0
410,Guatire,VE,2020-02-24 05:56:47,10.48,-66.54,69.01,98,76,3.36,light rain,0.007480314960629922,0.0
411,Zhigansk,RU,2020-02-24 05:56:47,66.77,123.37,-3.77,93,100,15.68,overcast clouds,0.0,0.0
412,Painesville,US,2020-02-24 05:56:47,41.72,-81.25,44.6,33,1,9.17,clear sky,0.0,0.0
413,Basco,PH,2020-02-24 05:56:48,20.45,121.97,75.24,82,53,21.79,broken clouds,0.0,0.0
414,Mayo,US,2020-02-24 05:56:48,38.89,-76.51,44.6,80,1,4.7,clear sky,0.0,0.0
415,Eresos,GR,2020-02-24 05:56:48,39.17,25.93,46.4,70,18,4.7,few clouds,0.0,0.0
416,Dubrovnik,HR,2020-02-24 05:56:48,42.65,18.09,44.6,75,34,4.7,scattered clouds,0.0,0.0
417,Octeville,FR,2020-02-24 05:56:49,49.63,-1.64,51.01,100,90,20.8,mist,0.0,0.0
418,Krasnyy Yar,RU,2020-02-24 05:56:49,46.53,48.35,37.4,72,75,8.95,broken clouds,0.0,0.0
419,Chufarovo,RU,2020-02-24 05:56:49,54.1,47.34,31.3,94,99,10.92,light snow,0.0,0.007480314960629922
420,Galeana,MX,2020-02-24 05:56:49,24.83,-100.07,46.0,57,1,1.01,clear sky,0.0,0.0
421,Lamu,KE,2020-02-24 05:56:49,-2.27,40.9,82.67,82,66,12.93,light rain,0.022047244094488192,0.0
422,Havre-Saint-Pierre,CA,2020-02-24 05:56:49,50.23,-63.6,23.0,92,75,10.29,broken clouds,0.0,0.0
423,Mae Sai,TH,2020-02-24 05:56:50,20.43,99.88,81.0,50,60,4.7,broken clouds,0.0,0.0
424,Yarada,IN,2020-02-24 05:56:50,17.65,83.27,87.8,45,20,10.29,haze,0.0,0.0
425,Otane,NZ,2020-02-24 05:56:50,-39.88,176.63,66.0,57,41,10.0,scattered clouds,0.0,0.0
426,Coihaique,CL,2020-02-24 05:56:51,-45.58,-72.07,43.02,91,69,9.78,broken clouds,0.0,0.0
427,Soure,BR,2020-02-24 05:56:51,-0.72,-48.52,77.32,92,5,4.85,light rain,0.012204724409448819,0.0
428,Quzhou,CN,2020-02-24 05:55:04,28.96,118.87,69.69,65,100,1.59,overcast clouds,0.0,0.0
429,Souillac,MU,2020-02-24 05:56:51,-20.52,57.52,82.4,78,20,3.18,few clouds,0.0,0.0
430,Along,IN,2020-02-24 05:56:51,28.17,94.77,75.45,42,22,2.84,few clouds,0.0,0.0
431,Romanovo,RU,2020-02-24 05:56:51,52.62,81.23,18.57,92,80,1.01,broken clouds,0.0,0.0
432,Baherden,TM,2020-02-24 05:56:52,38.44,57.43,58.05,52,4,2.3,clear sky,0.0,0.0
433,Laja,CL,2020-02-24 05:56:52,-37.27,-72.7,51.49,94,3,4.25,clear sky,0.0,0.0
434,Challans,FR,2020-02-24 05:56:52,46.84,-1.87,51.8,100,90,10.29,overcast clouds,0.0,0.0
435,Mehamn,NO,2020-02-24 05:56:52,71.04,27.85,35.6,98,90,26.4,overcast clouds,0.0,0.0
436,Harqalah,TN,2020-02-24 05:56:52,36.03,10.51,53.01,86,0,2.24,clear sky,0.0,0.0
437,Plouzane,FR,2020-02-24 05:56:53,48.38,-4.62,51.8,93,90,20.8,overcast clouds,0.0,0.0
438,Olden,NO,2020-02-24 05:56:53,61.84,6.81,32.0,94,90,4.7,light shower snow,0.0,0.0
439,Chama,CH,2020-02-24 05:56:53,47.18,8.46,55.4,58,90,5.82,overcast clouds,0.0,0.0
440,Dunedin,NZ,2020-02-24 05:53:48,-45.87,170.5,63.0,69,43,5.99,scattered clouds,0.0,0.0
441,Vanavara,RU,2020-02-24 05:56:53,60.34,102.28,19.8,88,100,10.25,overcast clouds,0.0,0.0
442,Lazaro Cardenas,MX,2020-02-24 05:56:54,17.96,-102.2,71.82,88,8,2.28,clear sky,0.0,0.0
443,Omboue,GA,2020-02-24 05:56:54,-1.57,9.26,75.18,95,99,0.89,overcast clouds,0.0,0.0
444,De-Kastri,RU,2020-02-24 05:56:54,51.47,140.78,17.64,78,76,2.15,broken clouds,0.0,0.0
445,Merauke,ID,2020-02-24 05:56:54,-8.47,140.33,87.49,72,34,5.19,light rain,0.0688976377952756,0.0
446,Acarau,BR,2020-02-24 05:56:55,-2.89,-40.12,74.73,97,21,2.91,light rain,0.04448818897637795,0.0
447,Coquimbo,CL,2020-02-24 05:56:55,-29.95,-71.34,60.6,87,0,2.66,clear sky,0.0,0.0
448,Hofn,IS,2020-02-24 05:56:55,64.25,-15.21,38.98,80,100,28.99,light snow,0.0,0.024803149606299216
449,Narrabri,AU,2020-02-24 05:56:55,-30.32,149.78,82.4,48,90,3.36,overcast clouds,0.0,0.0
450,Puerto Madryn,AR,2020-02-24 05:56:55,-42.77,-65.04,59.25,79,52,21.23,broken clouds,0.0,0.0
451,Hazorasp,UZ,2020-02-24 05:56:55,41.32,61.07,44.6,75,90,4.7,overcast clouds,0.0,0.0
452,Pochutla,MX,2020-02-24 05:56:56,15.74,-96.47,78.8,94,5,3.36,clear sky,0.0,0.0
453,Gerash,IR,2020-02-24 05:56:56,27.67,54.14,59.0,62,82,4.7,broken clouds,0.0,0.0
454,Manyana,BW,2020-02-24 05:56:56,-23.4,21.72,68.34,81,100,11.99,overcast clouds,0.0,0.0
455,Kijang,KR,2020-02-24 05:56:56,35.24,129.21,60.8,17,98,11.41,overcast clouds,0.0,0.0
456,Kadnikov,RU,2020-02-24 05:56:56,59.5,40.34,33.13,97,98,9.06,light snow,0.0,0.04921259842519685
457,Kloulklubed,PW,2020-02-24 05:56:57,7.04,134.26,86.0,66,75,19.46,broken clouds,0.0,0.0
458,Mercedes,AR,2020-02-24 05:56:57,-34.65,-59.43,69.01,86,0,9.51,clear sky,0.0,0.0
459,Ankang,CN,2020-02-24 05:55:00,32.68,109.02,66.76,45,71,4.72,broken clouds,0.0,0.0
460,Longhua,CN,2020-02-24 05:56:57,23.61,114.19,77.23,48,65,5.48,broken clouds,0.0,0.0
461,San Jose,US,2020-02-24 05:56:57,37.34,-121.89,52.0,81,1,1.41,clear sky,0.0,0.0
462,Dongli,CN,2020-02-24 05:56:58,23.57,116.82,73.4,53,75,4.47,broken clouds,0.0,0.0
463,Caldas Novas,BR,2020-02-24 05:56:58,-17.74,-48.62,68.59,96,100,0.65,moderate rain,0.13543307086614173,0.0
464,Calama,CL,2020-02-24 05:56:58,-22.47,-68.93,51.01,86,19,0.98,few clouds,0.0,0.0
465,Beberibe,BR,2020-02-24 05:56:58,-4.18,-38.13,80.6,88,40,4.7,scattered clouds,0.0,0.0
466,Alofi,NU,2020-02-24 05:56:58,-19.06,-169.92,82.4,83,100,8.05,overcast clouds,0.0,0.0
467,Mora,CM,2020-02-24 05:56:58,11.05,14.14,61.84,36,0,3.8,clear sky,0.0,0.0
468,Varkaus,FI,2020-02-24 05:56:59,62.33,27.87,26.01,95,1,1.99,clear sky,0.0,0.0
469,Raga,SS,2020-02-24 05:56:59,8.46,25.68,71.08,18,12,7.56,few clouds,0.0,0.0
470,Kathmandu,NP,2020-02-24 05:53:00,27.72,85.32,66.2,45,20,3.36,few clouds,0.0,0.0
471,Aguimes,ES,2020-02-24 05:56:59,27.91,-15.45,75.0,64,60,6.93,broken clouds,0.0,0.0
472,Nemuro,JP,2020-02-24 05:56:59,43.32,145.57,28.4,68,40,10.29,scattered clouds,0.0,0.0
473,Scarborough,GB,2020-02-24 05:52:14,54.28,-0.4,37.99,93,100,6.93,moderate rain,0.0,0.0
474,Joensuu,FI,2020-02-24 05:57:00,62.58,29.75,28.4,79,41,6.93,scattered clouds,0.0,0.0
475,Senador Jose Porfirio,BR,2020-02-24 05:57:00,-2.59,-51.95,74.62,95,99,2.01,overcast clouds,0.0,0.0
476,Kaeo,NZ,2020-02-24 05:57:00,-35.1,173.78,71.01,67,2,3.0,clear sky,0.0,0.0
477,Saint-Remi,CA,2020-02-24 05:57:00,45.27,-73.62,41.0,48,75,6.93,broken clouds,0.0,0.0
478,Bilibino,RU,2020-02-24 05:56:37,68.05,166.44,-28.1,93,21,2.3,few clouds,0.0,0.0
479,Seymchan,RU,2020-02-24 05:57:01,62.88,152.43,-17.1,97,92,1.92,overcast clouds,0.0,0.0
480,Buala,SB,2020-02-24 05:57:01,-8.14,159.59,84.47,71,52,3.53,light rain,0.02716535433070866,0.0
481,Natal,BR,2020-02-24 05:57:01,-5.79,-35.21,80.6,83,40,9.17,scattered clouds,0.0,0.0
482,Lida,BY,2020-02-24 05:57:01,53.88,25.3,34.74,93,99,14.38,overcast clouds,0.0,0.0
483,Prigen,ID,2020-02-24 05:57:02,-7.68,112.62,85.96,74,54,6.89,light rain,0.11811023622047245,0.0
484,Altamira,BR,2020-02-24 05:57:02,-3.2,-52.21,73.78,98,100,0.27,overcast clouds,0.0,0.0
485,Salalah,OM,2020-02-24 05:57:02,17.02,54.09,77.0,65,20,2.24,few clouds,0.0,0.0
486,Tiarei,PF,2020-02-24 05:57:02,-17.53,-149.33,82.4,74,40,5.82,scattered clouds,0.0,0.0
487,Panaba,MX,2020-02-24 05:57:02,21.28,-88.27,68.38,85,0,6.42,clear sky,0.0,0.0
488,Zunyi,CN,2020-02-24 05:54:30,27.69,106.91,66.74,62,60,9.75,broken clouds,0.0,0.0
489,Glamoc,BA,2020-02-24 05:54:01,44.05,16.85,35.22,86,100,1.3,overcast clouds,0.0,0.0
490,La Rioja,ES,2020-02-24 05:57:03,42.25,-2.5,35.6,93,0,2.24,clear sky,0.0,0.0
491,Metro,ID,2020-02-24 05:57:03,-5.11,105.31,88.9,62,22,15.79,light rain,0.005118110236220473,0.0
492,Cabo San Lucas,MX,2020-02-24 05:54:46,22.89,-109.91,66.2,82,5,5.75,clear sky,0.0,0.0
493,Birnin Kebbi,NG,2020-02-24 05:57:03,12.45,4.2,70.79,15,15,13.18,few clouds,0.0,0.0
494,Talnakh,RU,2020-02-24 05:57:04,69.49,88.4,17.6,92,75,31.32,broken clouds,0.0,0.0
495,Babushkin,RU,2020-02-24 05:57:04,51.71,105.86,19.36,77,55,2.75,broken clouds,0.0,0.0
496,La Ronge,CA,2020-02-24 05:57:04,55.1,-105.28,26.6,68,90,2.24,overcast clouds,0.0,0.0
497,Aguilas,ES,2020-02-24 05:57:04,37.41,-1.58,44.01,45,0,5.01,clear sky,0.0,0.0
498,Nizhnevartovsk,RU,2020-02-24 05:57:04,60.93,76.55,19.4,79,100,6.71,overcast clouds,0.0,0.0
499,San Carlos De Bariloche,AR,2020-02-24 05:53:50,-41.15,-71.31,50.0,71,75,17.22,broken clouds,0.0,0.0
500,Imperia,IT,2020-02-24 05:57:05,43.97,7.78,51.8,87,20,6.93,few clouds,0.0,0.0
501,Marsabit,KE,2020-02-24 05:57:05,2.33,37.99,78.89,59,65,24.81,broken clouds,0.0,0.0
502,Rorvik,NO,2020-02-24 05:57:05,64.86,11.24,32.0,100,20,3.36,shower rain,0.0,0.0
503,Villa Bruzual,VE,2020-02-24 05:57:06,9.33,-69.12,74.8,68,12,10.89,few clouds,0.0,0.0
504,Sassandra,CI,2020-02-24 05:57:06,4.95,-6.08,77.94,93,94,3.98,overcast clouds,0.0,0.0
505,Nikolayevsk-Na-Amure,RU,2020-02-24 05:57:06,53.14,140.73,12.16,86,87,3.98,overcast clouds,0.0,0.0
506,Amloh,IN,2020-02-24 05:57:06,30.61,76.23,76.06,35,36,6.73,scattered clouds,0.0,0.0
507,Ipaussu,BR,2020-02-24 05:57:06,-23.06,-49.63,62.29,88,18,10.07,few clouds,0.0,0.0
508,Solnechnyy,RU,2020-02-24 05:56:31,50.72,136.63,15.12,93,82,4.21,broken clouds,0.0,0.0
509,Beira,MZ,2020-02-24 05:57:07,-19.84,34.84,77.0,88,90,19.46,light intensity drizzle,0.0,0.0
510,Fraserburgh,GB,2020-02-24 05:57:07,57.69,-2.02,32.0,75,100,1.12,overcast clouds,0.0,0.0
511,Lithgow,AU,2020-02-24 05:57:07,-33.48,150.15,82.0,57,90,13.87,overcast clouds,0.0,0.0
512,Mount Isa,AU,2020-02-24 05:57:07,-20.73,139.5,78.8,83,75,19.46,moderate rain,0.0,0.0
513,Airai,TL,2020-02-24 05:57:07,-8.93,125.41,79.25,69,58,1.83,light rain,0.08622047244094488,0.0
514,Mbanza-Ngungu,CD,2020-02-24 05:57:08,-5.25,14.87,71.33,94,100,2.89,moderate rain,0.1625984251968504,0.0
515,Gondanglegi,ID,2020-02-24 05:57:08,-7.75,112.01,87.31,68,35,6.49,moderate rain,0.17480314960629922,0.0
516,Agadez,NE,2020-02-24 05:57:08,19.75,10.25,51.4,44,36,12.77,scattered clouds,0.0,0.0
517,Angoche,MZ,2020-02-24 05:57:08,-16.23,39.91,82.33,86,77,6.29,broken clouds,0.0,0.0
518,Colac,AU,2020-02-24 05:57:09,-38.33,143.58,70.0,92,78,1.01,broken clouds,0.0,0.0
519,Svetlaya,RU,2020-02-24 05:57:09,46.54,138.33,23.25,66,55,3.74,broken clouds,0.0,0.0
520,Chuy,UY,2020-02-24 05:57:09,-33.7,-53.46,63.19,80,43,9.06,scattered clouds,0.0,0.0
521,Panzhihua,CN,2020-02-24 05:57:09,26.59,101.71,76.37,29,0,1.45,clear sky,0.0,0.0
522,Barcelona,ES,2020-02-24 05:57:09,41.39,2.16,55.99,81,0,13.87,clear sky,0.0,0.0
523,Gazanjyk,TM,2020-02-24 05:57:10,39.24,55.52,52.66,60,44,2.46,scattered clouds,0.0,0.0
524,Iringa,TZ,2020-02-24 05:57:10,-7.77,35.7,69.8,88,20,0.69,few clouds,0.0,0.0
525,Alegrete,BR,2020-02-24 05:57:10,-29.78,-55.79,60.67,80,0,11.12,clear sky,0.0,0.0
526,Sierra Vista,US,2020-02-24 05:57:10,31.55,-110.3,46.0,81,20,9.17,few clouds,0.0,0.0
527,Vardo,NO,2020-02-24 05:57:11,70.37,31.11,30.2,74,75,13.87,broken clouds,0.0,0.0
528,Namatanai,PG,2020-02-24 05:57:11,-3.67,152.43,85.48,72,100,14.12,light rain,0.03700787401574803,0.0
529,Akyab,MM,2020-02-24 05:57:11,20.15,92.9,79.48,44,16,9.62,few clouds,0.0,0.0
530,Makhinjauri,GE,2020-02-24 05:57:11,41.67,41.69,48.2,66,0,23.04,clear sky,0.0,0.0
531,San Juan,AR,2020-02-24 05:57:12,-31.54,-68.54,72.0,43,0,5.5,clear sky,0.0,0.0
532,Alice Town,BS,2020-02-24 05:57:12,25.72,-79.3,70.79,70,83,20.45,broken clouds,0.0,0.0
533,Taloqan,AF,2020-02-24 05:57:12,36.74,69.53,48.56,68,100,5.77,overcast clouds,0.0,0.0
534,Nosy Varika,MG,2020-02-24 05:57:12,-20.58,48.53,82.67,77,49,1.41,scattered clouds,0.0,0.0
535,Egvekinot,RU,2020-02-24 05:57:12,66.32,-179.17,-27.24,94,0,2.42,clear sky,0.0,0.0
536,Male,MV,2020-02-24 05:55:15,4.17,73.51,87.8,70,20,17.22,few clouds,0.0,0.0
537,Ponta Delgada,PT,2020-02-24 05:57:13,37.73,-25.67,51.8,81,20,3.36,few clouds,0.0,0.0
538,Caravelas,BR,2020-02-24 05:57:13,-17.71,-39.25,79.77,83,34,9.51,moderate rain,0.1279527559055118,0.0
539,Hefei,CN,2020-02-24 05:56:03,31.86,117.28,77.0,44,78,15.66,broken clouds,0.0,0.0
540,Road Town,VG,2020-02-24 05:57:14,18.42,-64.62,77.0,83,40,3.62,scattered clouds,0.0,0.0
541,Kailua,US,2020-02-24 05:57:14,21.4,-157.74,77.0,69,20,10.29,few clouds,0.0,0.0
542,Santa Rosalia,MX,2020-02-24 05:57:14,27.32,-112.28,58.33,40,100,4.79,overcast clouds,0.0,0.0
543,Aban,RU,2020-02-24 05:57:14,56.67,96.06,19.04,88,58,0.18,broken clouds,0.0,0.0
544,Byron Bay,AU,2020-02-24 05:54:53,-28.65,153.62,79.0,88,90,3.36,overcast clouds,0.0,0.0
545,Xuddur,SO,2020-02-24 05:53:31,4.12,43.89,77.52,52,38,19.24,scattered clouds,0.0,0.0
546,Kiruna,SE,2020-02-24 05:56:08,67.86,20.23,28.4,74,100,27.51,overcast clouds,0.0,0.0
547,Pacific Grove,US,2020-02-24 05:55:22,36.62,-121.92,53.01,87,1,19.51,clear sky,0.0,0.0
548,Erenhot,CN,2020-02-24 05:57:15,43.65,111.98,28.4,73,88,14.67,overcast clouds,0.0,0.0
549,Tuatapere,NZ,2020-02-24 05:57:16,-46.13,167.68,63.64,51,26,5.41,scattered clouds,0.0,0.0
550,Patacamaya,BO,2020-02-24 05:57:16,-17.23,-67.92,46.26,93,100,4.34,light rain,0.01968503937007874,0.0
551,Portel,BR,2020-02-24 05:57:16,-1.94,-50.82,74.23,98,94,2.13,overcast clouds,0.0,0.0
552,Chengde,CN,2020-02-24 05:57:16,40.97,117.94,44.44,35,100,10.94,overcast clouds,0.0,0.0
553,Paka,MY,2020-02-24 05:57:16,4.64,103.44,80.6,88,40,9.17,scattered clouds,0.0,0.0
554,Dubki,RU,2020-02-24 05:57:16,43.02,46.84,41.0,80,90,6.71,overcast clouds,0.0,0.0
555,Ugoofaaru,MV,2020-02-24 05:57:17,5.67,73.0,83.07,79,51,23.15,light rain,0.01732283464566929,0.0
556,Saint-Georges,GD,2020-02-24 05:55:21,12.06,-61.75,78.8,88,40,10.29,scattered clouds,0.0,0.0
557,Dedza,MW,2020-02-24 05:57:17,-14.38,34.33,69.44,94,100,3.24,moderate rain,0.17244094488188977,0.0
558,Kidal,ML,2020-02-24 05:57:17,18.44,1.41,65.71,19,8,17.16,clear sky,0.0,0.0
559,Bayan,CN,2020-02-24 05:57:17,46.08,127.4,33.01,40,75,9.91,broken clouds,0.0,0.0
560,Lagoa,PT,2020-02-24 05:57:18,39.05,-27.98,59.65,81,89,11.65,overcast clouds,0.0,0.0
561,Nhulunbuy,AU,2020-02-24 05:57:18,-12.23,136.77,89.6,66,75,19.46,broken clouds,0.0,0.0
562,Sobolevo,RU,2020-02-24 05:57:18,54.43,31.9,31.24,87,53,6.42,broken clouds,0.0,0.0
563,Pampa,US,2020-02-24 05:57:18,35.54,-100.96,44.6,93,90,24.16,overcast clouds,0.0,0.0
564,Apam,GH,2020-02-24 05:57:18,5.28,-0.74,78.33,92,30,4.27,scattered clouds,0.0,0.0
565,Finschhafen,PG,2020-02-24 05:57:19,-6.6,147.87,83.43,79,32,12.46,light rain,0.00984251968503937,0.0
566,Mogocha,RU,2020-02-24 05:57:19,53.73,119.77,21.0,78,0,4.65,clear sky,0.0,0.0
567,Dalbandin,PK,2020-02-24 05:57:19,28.89,64.41,74.19,21,0,5.14,clear sky,0.0,0.0
568,Bilma,NE,2020-02-24 05:57:19,18.69,12.92,52.18,42,58,11.7,broken clouds,0.0,0.0
569,Porbandar,IN,2020-02-24 05:57:19,21.64,69.61,82.4,42,0,9.17,clear sky,0.0,0.0
570,Udachnyy,RU,2020-02-24 05:57:19,66.42,112.4,14.0,92,26,8.95,scattered clouds,0.0,0.0
571,Portobelo,PA,2020-02-24 05:57:20,9.55,-79.65,75.99,88,94,4.14,overcast clouds,0.0,0.0
572,Waipawa,NZ,2020-02-24 05:57:20,-41.41,175.52,68.0,63,49,8.05,scattered clouds,0.0,0.0
573,Say,NE,2020-02-24 05:57:20,13.1,2.37,77.0,11,0,12.75,dust,0.0,0.0
574,Danielskuil,ZA,2020-02-24 05:57:20,-28.19,23.54,63.97,68,30,14.34,scattered clouds,0.0,0.0
575,Whitianga,NZ,2020-02-24 05:57:20,-36.83,175.7,67.98,61,6,5.14,clear sky,0.0,0.0
576,Waspan,NI,2020-02-24 05:57:21,14.74,-83.97,65.08,90,0,3.78,clear sky,0.0,0.0
